[
  {
    "_id": "56c66be6a73e492741507624",
    "name": "Wells Fargo Center",
    "address": {
      "street name": "South Broad Street",
      "state": "PA",
      "street number": "3601",
      "zip": "19148",
      "city": "Philadelphia"
    },
    "geocode": {
      "lng": -75.171979,
      "lat": 39.901202
    }
  },
  {
    "_id": "56c66be6a73e492741507625",
    "name": "XFINITY Live! Philadelphia",
    "address": {
      "street name": "Pattison Avenue",
      "state": "PA",
      "street number": "1100",
      "zip": "19148",
      "city": "Philadelphia"
    },
    "geocode": {
      "lng": -75.169313,
      "lat": 39.904218
    }
  },
  {
    "_id": "56c66be6a73e492741507626",
    "name": "McFadden's",
    "address": {
      "street name": "Citizens Bank Way",
      "state": "PA",
      "street number": "1",
      "zip": "19148",
      "city": "Philadelphia"
    },
    "geocode": {
      "lng": -75.167462,
      "lat": 39.905013
    }
  },
  {
    "_id": "56c66be6a73e492741507627",
    "name": "Jetro",
    "address": {
      "street name": "Pattison Avenue",
      "state": "PA",
      "street number": "700",
      "zip": "19148",
      "city": "Philadelphia"
    },
    "geocode": {
      "lng": -75.163951,
      "lat": 39.901605
    }
  },
  {
    "_id": "56c66be6a73e492741507628",
    "name": "Stadium Bar & Restaurant",
    "address": {
      "street name": "Packer Avenue",
      "state": "PA",
      "street number": "900",
      "zip": "19148",
      "city": "Philadelphia"
    },
    "geocode": {
      "lng": -75.164557,
      "lat": 39.909386
    }
  },
  {
    "_id": "56c66be6a73e492741507629",
    "name": "Victory Beer Hall",
    "address": {
      "street name": "Pattison Avenue",
      "state": "PA",
      "street number": "1100",
      "zip": "19148",
      "city": "Philadelphia"
    },
    "geocode": {
      "lng": -75.169505,
      "lat": 39.904504
    }
  },
  {
    "_id": "56c66be6a73e49274150762a",
    "name": "CVS Pharmacy",
    "address": {
      "street name": "South Broad Street",
      "state": "PA",
      "street number": "3300",
      "zip": "19145",
      "city": "Philadelphia"
    },
    "geocode": {
      "lng": -75.174015,
      "lat": 39.909127
    }
  },
  {
    "_id": "56c66be6a73e49274150762b",
    "name": "Stadium Grille",
    "address": {
      "street name": "Pattison Avenue",
      "state": "PA",
      "street number": "700",
      "zip": "19148",
      "city": "Philadelphia"
    },
    "geocode": {
      "lng": -75.163886,
      "lat": 39.90259
    }
  },
  {
    "_id": "56c66be6a73e49274150762c",
    "name": "StubHub",
    "address": {
      "street name": "Packer Avenue",
      "state": "PA",
      "street number": "900",
      "zip": "19148",
      "city": "Philadelphia"
    },
    "geocode": {
      "lng": -75.164489,
      "lat": 39.909381
    }
  },
  {
    "_id": "56c66be6a73e49274150762d",
    "name": "Termites R Us",
    "address": {
      "street name": "South 17th Street",
      "state": "PA",
      "street number": "3208",
      "zip": "19145",
      "city": "Philadelphia"
    },
    "geocode": {
      "lng": -75.177721,
      "lat": 39.909553
    }
  },
  {
    "_id": "56c66be6a73e49274150762e",
    "name": "Sportview Bar & Grill",
    "address": {
      "street name": "Packer Avenue",
      "state": "PA",
      "street number": "700",
      "zip": "19148",
      "city": "Philadelphia"
    },
    "geocode": {
      "lng": -75.162272,
      "lat": 39.909182
    }
  },
  {
    "_id": "56c66be6a73e49274150762f",
    "name": "Tim Hortons",
    "address": {
      "street name": "South Broad Street",
      "state": "PA",
      "street number": "3601",
      "zip": "19148",
      "city": "Philadelphia"
    },
    "geocode": {
      "lng": -75.171971,
      "lat": 39.901163
    }
  },
  {
    "_id": "56c66be6a73e492741507630",
    "name": "Lee's Brothers",
    "address": {
      "street name": "Pattison Avenue",
      "state": "PA",
      "street number": "700",
      "zip": "19148",
      "city": "Philadelphia"
    },
    "geocode": {
      "lng": -75.16358,
      "lat": 39.902471
    }
  },
  {
    "_id": "56c66be6a73e492741507631",
    "name": "P.J Whelihan's",
    "address": {
      "street name": "South Broad Street",
      "state": "PA",
      "street number": "3601",
      "zip": "19148",
      "city": "Philadelphia"
    },
    "geocode": {
      "lng": -75.171997,
      "lat": 39.900657
    }
  },
  {
    "_id": "56c66be6a73e492741507632",
    "name": "Tecnico Corporation",
    "address": {
      "street name": "South Broad Street",
      "state": "PA",
      "street number": "4619",
      "zip": "19112",
      "city": "Philadelphia"
    },
    "geocode": {
      "lng": -75.175321,
      "lat": 39.897444
    }
  },
  {
    "_id": "56c66be6a73e492741507633",
    "name": "L-3 Marine & Power Systems",
    "address": {
      "street name": "Intrepid Avenue",
      "state": "PA",
      "street number": "1321",
      "zip": "19112",
      "city": "Philadelphia"
    },
    "geocode": {
      "lng": -75.174766,
      "lat": 39.893922
    }
  },
  {
    "_id": "56c66be6a73e492741507634",
    "name": "Campo's",
    "address": {
      "street name": "South Broad Street",
      "state": "PA",
      "street number": "3601",
      "zip": "19148",
      "city": "Philadelphia"
    },
    "geocode": {
      "lng": -75.172042,
      "lat": 39.901797
    }
  },
  {
    "_id": "56c66be6a73e492741507635",
    "name": "Little Gift Shop",
    "address": {
      "street name": "South Smedley Street",
      "state": "PA",
      "street number": "3246",
      "zip": "19145",
      "city": "Philadelphia"
    },
    "geocode": {
      "lng": -75.17682,
      "lat": 39.908539
    }
  },
  {
    "_id": "56c66be6a73e492741507636",
    "name": "Dunkin' Donuts",
    "address": {
      "state": "PA",
      "zip": "19148",
      "city": "Philadelphia"
    },
    "geocode": {
      "lng": -75.168071,
      "lat": 39.900377
    }
  },
  {
    "_id": "56c66be6a73e492741507637",
    "name": "Lo Spiedo",
    "address": {
      "street name": "South Broad Street",
      "state": "PA",
      "street number": "4503",
      "zip": "19112",
      "city": "Philadelphia"
    },
    "geocode": {
      "lng": -75.175426,
      "lat": 39.896621
    }
  },
  {
    "_id": "56c66be6a73e492741507638",
    "name": "PBR Bar & Grill",
    "address": {
      "street name": "Pattison Avenue",
      "state": "PA",
      "street number": "1100",
      "zip": "19148",
      "city": "Philadelphia"
    },
    "geocode": {
      "lng": -75.169246,
      "lat": 39.904332
    }
  },
  {
    "_id": "56c66be6a73e492741507639",
    "name": "Jefferson At the Navy Yard",
    "address": {
      "street name": "Crescent Drive",
      "state": "PA",
      "street number": "3",
      "zip": "19112",
      "city": "Philadelphia"
    },
    "geocode": {
      "lng": -75.17406,
      "lat": 39.895977
    }
  },
  {
    "_id": "56c66be6a73e49274150763a",
    "name": "Sovereign ATM",
    "address": {
      "street name": "South Broad Street",
      "state": "PA",
      "street number": "3300",
      "zip": "19145",
      "city": "Philadelphia"
    },
    "geocode": {
      "lng": -75.174015,
      "lat": 39.909127
    }
  },
  {
    "_id": "56c66be6a73e49274150763b",
    "name": "Boardwalk fries",
    "address": {
      "street name": "South Broad Street",
      "state": "PA",
      "street number": "3601",
      "zip": "19148",
      "city": "Philadelphia"
    },
    "geocode": {
      "lng": -75.172334,
      "lat": 39.901411
    }
  },
  {
    "_id": "56c66be6a73e49274150763c",
    "name": "My 3 Butterflies",
    "address": {
      "street name": "South Sydenham Street",
      "state": "PA",
      "street number": "3225",
      "zip": "19145",
      "city": "Philadelphia"
    },
    "geocode": {
      "lng": -75.175002,
      "lat": 39.908932
    }
  },
  {
    "_id": "56c66be6a73e49274150763d",
    "name": "T Warehouse Corporation",
    "address": {
      "street name": "South Darien Street",
      "state": "PA",
      "street number": "3600",
      "zip": "19145",
      "city": "Philadelphia"
    },
    "geocode": {
      "lng": -75.164755,
      "lat": 39.904258
    }
  },
  {
    "_id": "56c66be6a73e49274150763e",
    "name": "Dunkin' Donuts",
    "address": {
      "street name": "South Broad Street",
      "state": "PA",
      "street number": "3601",
      "zip": "19148",
      "city": "Philadelphia"
    },
    "geocode": {
      "lng": -75.172101,
      "lat": 39.901213
    }
  },
  {
    "_id": "56c66be6a73e49274150763f",
    "name": "Miller Truck Leasing",
    "address": {
      "street name": "South 7th Street",
      "state": "PA",
      "street number": "3200",
      "zip": "19148",
      "city": "Philadelphia"
    },
    "geocode": {
      "lng": -75.161358,
      "lat": 39.90845
    }
  },
  {
    "_id": "56c66be6a73e492741507640",
    "name": "Team Store",
    "address": {
      "street name": "South Broad Street",
      "state": "PA",
      "street number": "3601",
      "zip": "19148",
      "city": "Philadelphia"
    },
    "geocode": {
      "lng": -75.172702,
      "lat": 39.901655
    }
  },
  {
    "_id": "56c66be6a73e492741507641",
    "name": "Smartwise Solutions",
    "address": {
      "street name": "Hulseman Street",
      "state": "PA",
      "street number": "1521",
      "zip": "19145",
      "city": "Philadelphia"
    },
    "geocode": {
      "lng": -75.175014,
      "lat": 39.909311
    }
  }
]